[
  {
    "index": 0,
    "address": "6TH FLOOR HSBC TOWER, DUBAI, 00000",
    "queryUsed": "Dubai, UAE",
    "context": "",
    "lat": 25.0977735,
    "lng": 55.1788251,
    "accuracy": "LOW",
    "display": "Grand Heights Dubai Hotel Apartments, شارع الفصول, مدينة دبي للإعلام 2, دبي, 502400, الإمارات العربية المتحدة"
  },
  {
    "index": 1,
    "address": "6TH FLOOR HSBC TOWER, DUBAI, 00000",
    "queryUsed": "Dubai, UAE",
    "context": "",
    "lat": 25.0977735,
    "lng": 55.1788251,
    "accuracy": "LOW",
    "display": "Grand Heights Dubai Hotel Apartments, شارع الفصول, مدينة دبي للإعلام 2, دبي, 502400, الإمارات العربية المتحدة"
  },
  {
    "index": 2,
    "address": "6TH FLOOR HSBC TOWER, DUBAI, 00000",
    "queryUsed": "Dubai, UAE",
    "context": "",
    "lat": 25.0977735,
    "lng": 55.1788251,
    "accuracy": "LOW",
    "display": "Grand Heights Dubai Hotel Apartments, شارع الفصول, مدينة دبي للإعلام 2, دبي, 502400, الإمارات العربية المتحدة"
  },
  {
    "index": 3,
    "address": "6TH FLOOR HSBC TOWER, DUBAI, 00000",
    "queryUsed": "Dubai, UAE",
    "context": "",
    "lat": 25.0977735,
    "lng": 55.1788251,
    "accuracy": "LOW",
    "display": "Grand Heights Dubai Hotel Apartments, شارع الفصول, مدينة دبي للإعلام 2, دبي, 502400, الإمارات العربية المتحدة"
  },
  {
    "index": 4,
    "address": "6TH FLOOR HSBC TOWER, DUBAI, 00000",
    "queryUsed": "Dubai, UAE",
    "context": "",
    "lat": 25.0977735,
    "lng": 55.1788251,
    "accuracy": "LOW",
    "display": "Grand Heights Dubai Hotel Apartments, شارع الفصول, مدينة دبي للإعلام 2, دبي, 502400, الإمارات العربية المتحدة"
  },
  {
    "index": 5,
    "address": "6TH FLOOR HSBC TOWER, DUBAI, 00000",
    "queryUsed": "Dubai, UAE",
    "context": "",
    "lat": 25.0977735,
    "lng": 55.1788251,
    "accuracy": "LOW",
    "display": "Grand Heights Dubai Hotel Apartments, شارع الفصول, مدينة دبي للإعلام 2, دبي, 502400, الإمارات العربية المتحدة"
  },
  {
    "index": 6,
    "address": "6TH FLOOR HSBC TOWER, DUBAI, 00000",
    "queryUsed": "Dubai, UAE",
    "context": "",
    "lat": 25.0977735,
    "lng": 55.1788251,
    "accuracy": "LOW",
    "display": "Grand Heights Dubai Hotel Apartments, شارع الفصول, مدينة دبي للإعلام 2, دبي, 502400, الإمارات العربية المتحدة"
  },
  {
    "index": 7,
    "address": "6TH FLOOR HSBC TOWER, DUBAI, 00000",
    "queryUsed": "Dubai, UAE",
    "context": "",
    "lat": 25.0977735,
    "lng": 55.1788251,
    "accuracy": "LOW",
    "display": "Grand Heights Dubai Hotel Apartments, شارع الفصول, مدينة دبي للإعلام 2, دبي, 502400, الإمارات العربية المتحدة"
  },
  {
    "index": 8,
    "address": "LOOTAH BUILDING, NASSER SQUARE, DUBAI, 00000",
    "queryUsed": "DUBAI",
    "context": "Dubai, UAE",
    "lat": 25.1738662,
    "lng": 55.2187829,
    "accuracy": "LOW",
    "display": "Beach Walk Hotel - Jumeriah, شارع جميرا, أم سقيم 1, أم سقيم, دبي, الإمارات العربية المتحدة"
  },
  {
    "index": 9,
    "address": "LOOTAH BUILDING, NASSER SQUARE, DUBAI, 00000",
    "queryUsed": "DUBAI",
    "context": "Dubai, UAE",
    "lat": 25.1738662,
    "lng": 55.2187829,
    "accuracy": "LOW",
    "display": "Beach Walk Hotel - Jumeriah, شارع جميرا, أم سقيم 1, أم سقيم, دبي, الإمارات العربية المتحدة"
  },
  {
    "index": 10,
    "address": "LOOTAH BUILDING, NASSER SQUARE, DUBAI, 00000",
    "queryUsed": "DUBAI",
    "context": "Dubai, UAE",
    "lat": 25.1738662,
    "lng": 55.2187829,
    "accuracy": "LOW",
    "display": "Beach Walk Hotel - Jumeriah, شارع جميرا, أم سقيم 1, أم سقيم, دبي, الإمارات العربية المتحدة"
  },
  {
    "index": 11,
    "address": "Alrashidiyah Two Floor Villa Umm Al Qu, 00000",
    "queryUsed": "Dubai, UAE",
    "context": "",
    "lat": 25.0977735,
    "lng": 55.1788251,
    "accuracy": "LOW",
    "display": "Grand Heights Dubai Hotel Apartments, شارع الفصول, مدينة دبي للإعلام 2, دبي, 502400, الإمارات العربية المتحدة"
  },
  {
    "index": 12,
    "address": "Damac ocean heights 3701, 00000",
    "queryUsed": "Dubai, UAE",
    "context": "",
    "lat": 25.0977735,
    "lng": 55.1788251,
    "accuracy": "LOW",
    "display": "Grand Heights Dubai Hotel Apartments, شارع الفصول, مدينة دبي للإعلام 2, دبي, 502400, الإمارات العربية المتحدة"
  },
  {
    "index": 13,
    "address": "316 ROAD AL BARSHA - 1, DUBAI, 00000",
    "queryUsed": "316 ROAD AL - 1, DUBAI",
    "context": "Dubai, UAE",
    "lat": 25.0791603,
    "lng": 55.3916248,
    "accuracy": "LOW",
    "display": "UAE SWAT Challenge, طريق دبي - العين, أم نهد 1/مدينة هند 1, دبي, الإمارات العربية المتحدة"
  },
  {
    "index": 14,
    "address": "316 ROAD AL BARSHA - 1, DUBAI, 00000",
    "queryUsed": "316 ROAD AL - 1, DUBAI",
    "context": "Dubai, UAE",
    "lat": 25.0791603,
    "lng": 55.3916248,
    "accuracy": "LOW",
    "display": "UAE SWAT Challenge, طريق دبي - العين, أم نهد 1/مدينة هند 1, دبي, الإمارات العربية المتحدة"
  },
  {
    "index": 15,
    "address": "316 ROAD AL BARSHA - 1, DUBAI, 00000",
    "queryUsed": "316 ROAD AL - 1, DUBAI",
    "context": "Dubai, UAE",
    "lat": 25.0791603,
    "lng": 55.3916248,
    "accuracy": "LOW",
    "display": "UAE SWAT Challenge, طريق دبي - العين, أم نهد 1/مدينة هند 1, دبي, الإمارات العربية المتحدة"
  },
  {
    "index": 16,
    "address": "316 ROAD AL BARSHA - 1, DUBAI, 00000",
    "queryUsed": "316 ROAD AL - 1, DUBAI",
    "context": "Dubai, UAE",
    "lat": 25.0791603,
    "lng": 55.3916248,
    "accuracy": "LOW",
    "display": "UAE SWAT Challenge, طريق دبي - العين, أم نهد 1/مدينة هند 1, دبي, الإمارات العربية المتحدة"
  },
  {
    "index": 17,
    "address": "316 ROAD AL BARSHA - 1, DUBAI, 00000",
    "queryUsed": "316 ROAD AL - 1, DUBAI",
    "context": "Dubai, UAE",
    "lat": 25.0791603,
    "lng": 55.3916248,
    "accuracy": "LOW",
    "display": "UAE SWAT Challenge, طريق دبي - العين, أم نهد 1/مدينة هند 1, دبي, الإمارات العربية المتحدة"
  },
  {
    "index": 18,
    "address": "316 ROAD AL BARSHA - 1, DUBAI, 00000",
    "queryUsed": "316 ROAD AL - 1, DUBAI",
    "context": "Dubai, UAE",
    "lat": 25.0791603,
    "lng": 55.3916248,
    "accuracy": "LOW",
    "display": "UAE SWAT Challenge, طريق دبي - العين, أم نهد 1/مدينة هند 1, دبي, الإمارات العربية المتحدة"
  },
  {
    "index": 19,
    "address": "316 ROAD AL BARSHA - 1, DUBAI, 00000",
    "queryUsed": "316 ROAD AL - 1, DUBAI",
    "context": "Dubai, UAE",
    "lat": 25.0791603,
    "lng": 55.3916248,
    "accuracy": "LOW",
    "display": "UAE SWAT Challenge, طريق دبي - العين, أم نهد 1/مدينة هند 1, دبي, الإمارات العربية المتحدة"
  },
  {
    "index": 20,
    "address": "316 ROAD AL BARSHA - 1, DUBAI, 00000",
    "queryUsed": "316 ROAD AL - 1, DUBAI",
    "context": "Dubai, UAE",
    "lat": 25.0791603,
    "lng": 55.3916248,
    "accuracy": "LOW",
    "display": "UAE SWAT Challenge, طريق دبي - العين, أم نهد 1/مدينة هند 1, دبي, الإمارات العربية المتحدة"
  },
  {
    "index": 21,
    "address": "316 ROAD AL BARSHA - 1, DUBAI, 00000",
    "queryUsed": "316 ROAD AL - 1, DUBAI",
    "context": "Dubai, UAE",
    "lat": 25.0791603,
    "lng": 55.3916248,
    "accuracy": "LOW",
    "display": "UAE SWAT Challenge, طريق دبي - العين, أم نهد 1/مدينة هند 1, دبي, الإمارات العربية المتحدة"
  },
  {
    "index": 22,
    "address": "316 ROAD AL BARSHA - 1, DUBAI, 00000",
    "queryUsed": "316 ROAD AL - 1, DUBAI",
    "context": "Dubai, UAE",
    "lat": 25.0791603,
    "lng": 55.3916248,
    "accuracy": "LOW",
    "display": "UAE SWAT Challenge, طريق دبي - العين, أم نهد 1/مدينة هند 1, دبي, الإمارات العربية المتحدة"
  },
  {
    "index": 23,
    "address": "316 ROAD AL BARSHA - 1, DUBAI, 00000",
    "queryUsed": "316 ROAD AL - 1, DUBAI",
    "context": "Dubai, UAE",
    "lat": 25.0791603,
    "lng": 55.3916248,
    "accuracy": "LOW",
    "display": "UAE SWAT Challenge, طريق دبي - العين, أم نهد 1/مدينة هند 1, دبي, الإمارات العربية المتحدة"
  },
  {
    "index": 24,
    "address": "316 ROAD AL BARSHA - 1, DUBAI, 00000",
    "queryUsed": "316 ROAD AL - 1, DUBAI",
    "context": "Dubai, UAE",
    "lat": 25.0791603,
    "lng": 55.3916248,
    "accuracy": "LOW",
    "display": "UAE SWAT Challenge, طريق دبي - العين, أم نهد 1/مدينة هند 1, دبي, الإمارات العربية المتحدة"
  },
  {
    "index": 25,
    "address": "316 ROAD AL BARSHA - 1, DUBAI, 00000",
    "queryUsed": "316 ROAD AL - 1, DUBAI",
    "context": "Dubai, UAE",
    "lat": 25.0791603,
    "lng": 55.3916248,
    "accuracy": "LOW",
    "display": "UAE SWAT Challenge, طريق دبي - العين, أم نهد 1/مدينة هند 1, دبي, الإمارات العربية المتحدة"
  },
  {
    "index": 26,
    "address": "316 ROAD AL BARSHA - 1, DUBAI, 00000",
    "queryUsed": "316 ROAD AL - 1, DUBAI",
    "context": "Dubai, UAE",
    "lat": 25.0791603,
    "lng": 55.3916248,
    "accuracy": "LOW",
    "display": "UAE SWAT Challenge, طريق دبي - العين, أم نهد 1/مدينة هند 1, دبي, الإمارات العربية المتحدة"
  },
  {
    "index": 27,
    "address": "316 ROAD AL BARSHA - 1, DUBAI, 00000",
    "queryUsed": "316 ROAD AL - 1, DUBAI",
    "context": "Dubai, UAE",
    "lat": 25.0791603,
    "lng": 55.3916248,
    "accuracy": "LOW",
    "display": "UAE SWAT Challenge, طريق دبي - العين, أم نهد 1/مدينة هند 1, دبي, الإمارات العربية المتحدة"
  },
  {
    "index": 28,
    "address": "SAHAR ATOWER 6A BLOCK 21204 AL NAHDA,, Sharjah, 00000",
    "queryUsed": "Dubai, UAE",
    "context": "",
    "lat": 25.0977735,
    "lng": 55.1788251,
    "accuracy": "LOW",
    "display": "Grand Heights Dubai Hotel Apartments, شارع الفصول, مدينة دبي للإعلام 2, دبي, 502400, الإمارات العربية المتحدة"
  },
  {
    "index": 29,
    "address": "Al Kheeran First, Dubai Creek Harbo_x000, Dubai_x000D_\r\n DU_x000D_\r\n AE_x000D_, 00000",
    "queryUsed": "Dubai, UAE",
    "context": "",
    "lat": 25.0977735,
    "lng": 55.1788251,
    "accuracy": "LOW",
    "display": "Grand Heights Dubai Hotel Apartments, شارع الفصول, مدينة دبي للإعلام 2, دبي, 502400, الإمارات العربية المتحدة"
  },
  {
    "index": 30,
    "address": "Villa no.3zone 20 yow al hilayaqah str, ABU DHABI, 00000",
    "queryUsed": "Dubai, UAE",
    "context": "",
    "lat": 25.0977735,
    "lng": 55.1788251,
    "accuracy": "LOW",
    "display": "Grand Heights Dubai Hotel Apartments, شارع الفصول, مدينة دبي للإعلام 2, دبي, 502400, الإمارات العربية المتحدة"
  },
  {
    "index": 31,
    "address": "Al Rahah, Al Zeina, Abu Dhabi, Abu Dhabi_x000D_\r\n AZ_x000D_\r\n AE_x000D, 00000",
    "queryUsed": "Dubai, UAE",
    "context": "",
    "lat": 25.0977735,
    "lng": 55.1788251,
    "accuracy": "LOW",
    "display": "Grand Heights Dubai Hotel Apartments, شارع الفصول, مدينة دبي للإعلام 2, دبي, 502400, الإمارات العربية المتحدة"
  },
  {
    "index": 32,
    "address": "Uptown motor city  abbey crescent 1/404, DUBAI, 00000",
    "queryUsed": "Dubai, UAE",
    "context": "",
    "lat": 25.0977735,
    "lng": 55.1788251,
    "accuracy": "LOW",
    "display": "Grand Heights Dubai Hotel Apartments, شارع الفصول, مدينة دبي للإعلام 2, دبي, 502400, الإمارات العربية المتحدة"
  },
  {
    "index": 33,
    "address": "Arabian Ranches Al Reem 3-Arabian ranc, DUBAI, 00000",
    "queryUsed": "Arabian Ranches Al Reem 3",
    "context": "dubai",
    "lat": 25.0573263,
    "lng": 55.2721805,
    "accuracy": "LOW",
    "display": "arabian r school, شارع وادي الصفا 6, الريم 3, وادي الصفا 6, دبي, الإمارات العربية المتحدة"
  },
  {
    "index": 34,
    "address": "Al Nahda 1-Flat 606  Bahwan tower  5th, DUBAI, 00000",
    "queryUsed": "Al Nahda 1",
    "context": "dubai",
    "lat": 25.2883511,
    "lng": 55.3631377,
    "accuracy": "LOW",
    "display": "النهدة 1, النهدة, دبي, الإمارات العربية المتحدة"
  },
  {
    "index": 35,
    "address": "Al Jaddaf-Barjeel residency apt 801 dx, DUBAI, 00000",
    "queryUsed": "Al Jaddaf",
    "context": "dubai",
    "lat": 25.2214426,
    "lng": 55.3319351,
    "accuracy": "LOW",
    "display": "Al Jaddaf, شارع 26, الجداف, دبي, الإمارات العربية المتحدة"
  },
  {
    "index": 36,
    "address": "Al qusais 1flat 710 Al habtoor al Qusa, DUBAI, 00000",
    "queryUsed": "Dubai, UAE",
    "context": "",
    "lat": 25.0977735,
    "lng": 55.1788251,
    "accuracy": "LOW",
    "display": "Grand Heights Dubai Hotel Apartments, شارع الفصول, مدينة دبي للإعلام 2, دبي, 502400, الإمارات العربية المتحدة"
  },
  {
    "index": 37,
    "address": "Al qusais 1flat 710 Al habtoor al Qusa, DUBAI, 00000",
    "queryUsed": "Dubai, UAE",
    "context": "",
    "lat": 25.0977735,
    "lng": 55.1788251,
    "accuracy": "LOW",
    "display": "Grand Heights Dubai Hotel Apartments, شارع الفصول, مدينة دبي للإعلام 2, دبي, 502400, الإمارات العربية المتحدة"
  },
  {
    "index": 38,
    "address": "Al qusais 1flat 710 Al habtoor al Qusa, DUBAI, 00000",
    "queryUsed": "Dubai, UAE",
    "context": "",
    "lat": 25.0977735,
    "lng": 55.1788251,
    "accuracy": "LOW",
    "display": "Grand Heights Dubai Hotel Apartments, شارع الفصول, مدينة دبي للإعلام 2, دبي, 502400, الإمارات العربية المتحدة"
  },
  {
    "index": 39,
    "address": "Al qusais 1flat 710 Al habtoor al Qusa, DUBAI, 00000",
    "queryUsed": "Dubai, UAE",
    "context": "",
    "lat": 25.0977735,
    "lng": 55.1788251,
    "accuracy": "LOW",
    "display": "Grand Heights Dubai Hotel Apartments, شارع الفصول, مدينة دبي للإعلام 2, دبي, 502400, الإمارات العربية المتحدة"
  },
  {
    "index": 40,
    "address": "Waterfront tower B Flat 2203-Tourist C, ABU DHABI, 00000",
    "queryUsed": "Dubai, UAE",
    "context": "",
    "lat": 25.0977735,
    "lng": 55.1788251,
    "accuracy": "LOW",
    "display": "Grand Heights Dubai Hotel Apartments, شارع الفصول, مدينة دبي للإعلام 2, دبي, 502400, الإمارات العربية المتحدة"
  },
  {
    "index": 41,
    "address": "Al Jimi-Opposit jimmi Al Ain, AL AIN, 00000",
    "queryUsed": "Al Jimi",
    "context": "dubai",
    "lat": 24.243134,
    "lng": 55.7201978,
    "accuracy": "LOW",
    "display": "Johara Dubai Islamic Bank, شارع الماهر, الجيمي, العين, أبو ظبي, الإمارات العربية المتحدة"
  },
  {
    "index": 42,
    "address": "International City Phase(2)-Warsan 4 a, DUBAI, 00000",
    "queryUsed": "International City Phase(2)",
    "context": "dubai",
    "lat": 25.1322737,
    "lng": 55.3981414,
    "accuracy": "LOW",
    "display": "المدينة الدولية, دبي, الإمارات العربية المتحدة"
  },
  {
    "index": 43,
    "address": "Jumeirah Village Triangle-District 3 B, DUBAI, 00000",
    "queryUsed": "Jumeirah Village Triangle",
    "context": "dubai",
    "lat": 25.0498433,
    "lng": 55.1907008,
    "accuracy": "LOW",
    "display": "قرية جميرا المثلث, District 5, البرشاء جنوب 5, دبي, الإمارات العربية المتحدة"
  },
  {
    "index": 44,
    "address": "Al Ain  Central District-Central Distr, AL AIN, 00000",
    "queryUsed": "Al Ain Central District",
    "context": "dubai",
    "lat": 24.2279606,
    "lng": 55.7657435,
    "accuracy": "LOW",
    "display": "Dubai Islamic Bank, شارع التَّيْسِير, وسط المدينة, العين, أبو ظبي, الإمارات العربية المتحدة"
  },
  {
    "index": 45,
    "address": "Dubai Hills-Sidra 2  vila 196 (0564177, DUBAI, 00000",
    "queryUsed": "Dubai Hills, dubai",
    "context": "",
    "lat": 25.0425824,
    "lng": 55.1599907,
    "accuracy": "LOW",
    "display": "Kids Unlimited UAE, شارع الأصايل, Jumeirah Park, تلال الإمارات, دبي, الإمارات العربية المتحدة"
  },
  {
    "index": 46,
    "address": "Bani Yas-46 AlSaghah St  Bani Yas  Ban, ABU DHABI, 00000",
    "queryUsed": "Bani Yas",
    "context": "abu dhabi",
    "lat": 24.3064801,
    "lng": 54.6348593,
    "accuracy": "LOW",
    "display": "بني ياس, أبوظبي, أبو ظبي, الإمارات العربية المتحدة"
  },
  {
    "index": 47,
    "address": "Al Warqa 1-Almarmoom building apt 309, DUBAI, 00000",
    "queryUsed": "Al Warqa 1",
    "context": "dubai",
    "lat": 25.1889828,
    "lng": 55.4033756,
    "accuracy": "LOW",
    "display": "الورقاء 1, Al Warqa, دبي, الإمارات العربية المتحدة"
  },
  {
    "index": 48,
    "address": "Mirdif-Mirdif building aprt no.202 Dub, DUBAI, 00000",
    "queryUsed": "Mirdif, dubai",
    "context": "",
    "lat": 25.2239406,
    "lng": 55.4224553,
    "accuracy": "LOW",
    "display": "UAE Karate Federation, شارع الجزائر, مردف, دبي, الإمارات العربية المتحدة"
  },
  {
    "index": 49,
    "address": "Mushrif-Street no 5 villa no 8 Ajman, AJMAN, 00000",
    "queryUsed": "Dubai, UAE",
    "context": "",
    "lat": 25.0977735,
    "lng": 55.1788251,
    "accuracy": "LOW",
    "display": "Grand Heights Dubai Hotel Apartments, شارع الفصول, مدينة دبي للإعلام 2, دبي, 502400, الإمارات العربية المتحدة"
  },
  {
    "index": 50,
    "address": "Dubai Marina-1703 LIV Marina Dubai, DUBAI, 00000",
    "queryUsed": "Dubai Marina, dubai",
    "context": "",
    "lat": 25.0763848,
    "lng": 55.1406217,
    "accuracy": "LOW",
    "display": "Rental Cars UAE, Al Marsa Street, 218 Horizon Tower, JBR, شارع المرسى, دبي مارينا, مرسى دبي, دبي, 35114, الإمارات العربية المتحدة"
  },
  {
    "index": 51,
    "address": "Al Khalidiya-Choitram bld (0557182851), ABU DHABI, 00000",
    "queryUsed": "Al Khalidiya",
    "context": "abu dhabi",
    "lat": 24.47585,
    "lng": 54.3474964,
    "accuracy": "LOW",
    "display": "Al Khalidiya, شارع مبارك بن محمد, الخالدية, أبو ظبي, أبوظبي, أبو ظبي, الإمارات العربية المتحدة"
  },
  {
    "index": 52,
    "address": "Al Moroor-Al rawda west 58 nahel bld, ABU DHABI, 00000",
    "queryUsed": "Dubai, UAE",
    "context": "",
    "lat": 25.0977735,
    "lng": 55.1788251,
    "accuracy": "LOW",
    "display": "Grand Heights Dubai Hotel Apartments, شارع الفصول, مدينة دبي للإعلام 2, دبي, 502400, الإمارات العربية المتحدة"
  },
  {
    "index": 53,
    "address": "Abu Dhabi-Yas Island  YS1  Abu Dhabi A, ABU DHABI, 00000",
    "queryUsed": "Abu Dhabi",
    "context": "abu dhabi",
    "lat": 24.4538352,
    "lng": 54.3774014,
    "accuracy": "MEDIUM",
    "display": "أبو ظبي, أبوظبي, أبو ظبي, الإمارات العربية المتحدة"
  },
  {
    "index": 54,
    "address": "Al Jerf Industrial 3-Near China mall(0, AJMAN, 00000",
    "queryUsed": "Al Jerf Industrial 3",
    "context": "ajman",
    "lat": 25.391929,
    "lng": 55.4722247,
    "accuracy": "LOW",
    "display": "شارع الإتحاد, الجرف, عجمان, إمارة عجمان, الإمارات العربية المتحدة"
  },
  {
    "index": 55,
    "address": "Al Naeemia-Flat-401 Block A Bariz Towe, AJMAN, 00000",
    "queryUsed": "Dubai, UAE",
    "context": "",
    "lat": 25.0977735,
    "lng": 55.1788251,
    "accuracy": "LOW",
    "display": "Grand Heights Dubai Hotel Apartments, شارع الفصول, مدينة دبي للإعلام 2, دبي, 502400, الإمارات العربية المتحدة"
  },
  {
    "index": 56,
    "address": "Al Hamidiya1-0507708773 Ajman, AJMAN, 00000",
    "queryUsed": "Dubai, UAE",
    "context": "",
    "lat": 25.0977735,
    "lng": 55.1788251,
    "accuracy": "LOW",
    "display": "Grand Heights Dubai Hotel Apartments, شارع الفصول, مدينة دبي للإعلام 2, دبي, 502400, الإمارات العربية المتحدة"
  },
  {
    "index": 57,
    "address": "Al Sad-0506658881 Al Ain, AL AIN, 00000",
    "queryUsed": "Al Sad",
    "context": "dubai",
    "lat": 25.1170524,
    "lng": 55.2161174,
    "accuracy": "LOW",
    "display": "السد لمواد البناء, شارع 27, Al Quoz Industrial Area, مجتمع القوز, دبي, الإمارات العربية المتحدة"
  },
  {
    "index": 58,
    "address": "Remraam Community-Al thamam 4/105  Dub, DUBAI, 00000",
    "queryUsed": "Dubai, UAE",
    "context": "",
    "lat": 25.0977735,
    "lng": 55.1788251,
    "accuracy": "LOW",
    "display": "Grand Heights Dubai Hotel Apartments, شارع الفصول, مدينة دبي للإعلام 2, دبي, 502400, الإمارات العربية المتحدة"
  },
  {
    "index": 59,
    "address": "Dubai Marina-Marina royal tower 2303 D, DUBAI, 00000",
    "queryUsed": "Dubai Marina, dubai",
    "context": "",
    "lat": 25.0763848,
    "lng": 55.1406217,
    "accuracy": "LOW",
    "display": "Rental Cars UAE, Al Marsa Street, 218 Horizon Tower, JBR, شارع المرسى, دبي مارينا, مرسى دبي, دبي, 35114, الإمارات العربية المتحدة"
  },
  {
    "index": 60,
    "address": "Dubai Marina-Marina royal tower 2303 D, DUBAI, 00000",
    "queryUsed": "Dubai Marina, dubai",
    "context": "",
    "lat": 25.0763848,
    "lng": 55.1406217,
    "accuracy": "LOW",
    "display": "Rental Cars UAE, Al Marsa Street, 218 Horizon Tower, JBR, شارع المرسى, دبي مارينا, مرسى دبي, دبي, 35114, الإمارات العربية المتحدة"
  },
  {
    "index": 61,
    "address": "Meydan-Senaes at the fields villa C44-, DUBAI, 00000",
    "queryUsed": "Meydan",
    "context": "dubai",
    "lat": 25.1629302,
    "lng": 55.3142967,
    "accuracy": "LOW",
    "display": "ميدان, ند الشبا, دبي, الإمارات العربية المتحدة"
  },
  {
    "index": 62,
    "address": "Deira - Dubai-Street 64  Villa 61  Oud, DUBAI, 00000",
    "queryUsed": "Deira, dubai",
    "context": "",
    "lat": 25.2560857,
    "lng": 55.30325,
    "accuracy": "LOW",
    "display": "Service Basket UAE Movers & Packers, شارع 19, بر دبي, الحمرية, دبي, الإمارات العربية المتحدة"
  },
  {
    "index": 63,
    "address": "Mudon-Rukan 3 Villa N 88 Dubai, DUBAI, 00000",
    "queryUsed": "Mudon",
    "context": "dubai",
    "lat": 25.0204108,
    "lng": 55.2679936,
    "accuracy": "LOW",
    "display": "مدن, دبي, الإمارات العربية المتحدة"
  },
  {
    "index": 64,
    "address": "AL Suyoh 1-Villa no. E28 street 10 Sha, DUBAI, 00000",
    "queryUsed": "Dubai, UAE",
    "context": "",
    "lat": 25.0977735,
    "lng": 55.1788251,
    "accuracy": "LOW",
    "display": "Grand Heights Dubai Hotel Apartments, شارع الفصول, مدينة دبي للإعلام 2, دبي, 502400, الإمارات العربية المتحدة"
  },
  {
    "index": 65,
    "address": "Meydan South Villas-B2-14 villa  Dubai, DUBAI, 00000",
    "queryUsed": "Dubai, UAE",
    "context": "",
    "lat": 25.0977735,
    "lng": 55.1788251,
    "accuracy": "LOW",
    "display": "Grand Heights Dubai Hotel Apartments, شارع الفصول, مدينة دبي للإعلام 2, دبي, 502400, الإمارات العربية المتحدة"
  },
  {
    "index": 66,
    "address": "Garhoud-13a 30BStreet  Garhoud  Dubai, DUBAI, 00000",
    "queryUsed": "Garhoud, dubai",
    "context": "",
    "lat": 25.2447002,
    "lng": 55.3401559,
    "accuracy": "LOW",
    "display": "Rental Cars UAE - Dubai, M06, شارع 2, القرهود, دبي, الإمارات العربية المتحدة"
  },
  {
    "index": 67,
    "address": "Jumeirah Village Triangle-TRN 10411248, DUBAI, 00000",
    "queryUsed": "Jumeirah Village Triangle",
    "context": "dubai",
    "lat": 25.0498433,
    "lng": 55.1907008,
    "accuracy": "LOW",
    "display": "قرية جميرا المثلث, District 5, البرشاء جنوب 5, دبي, الإمارات العربية المتحدة"
  },
  {
    "index": 68,
    "address": "Jumeirah Village Triangle-TRN 10411248, DUBAI, 00000",
    "queryUsed": "Jumeirah Village Triangle",
    "context": "dubai",
    "lat": 25.0498433,
    "lng": 55.1907008,
    "accuracy": "LOW",
    "display": "قرية جميرا المثلث, District 5, البرشاء جنوب 5, دبي, الإمارات العربية المتحدة"
  },
  {
    "index": 69,
    "address": "Al Madinat Al Riyadiya-Zone 18  villa, ABU DHABI, 00000",
    "queryUsed": "Dubai, UAE",
    "context": "",
    "lat": 25.0977735,
    "lng": 55.1788251,
    "accuracy": "LOW",
    "display": "Grand Heights Dubai Hotel Apartments, شارع الفصول, مدينة دبي للإعلام 2, دبي, 502400, الإمارات العربية المتحدة"
  },
  {
    "index": 70,
    "address": "Al Barsha 1-SBOtower apt 412 near mall, DUBAI, 00000",
    "queryUsed": "Al Barsha 1",
    "context": "dubai",
    "lat": 25.109134,
    "lng": 55.1955266,
    "accuracy": "LOW",
    "display": "البرشاء 1, البرشاء, دبي, الإمارات العربية المتحدة"
  },
  {
    "index": 71,
    "address": "Al Shawamekh-Shamkha area 23 villa 13, ABU DHABI, 00000",
    "queryUsed": "Al Shawamekh",
    "context": "abu dhabi",
    "lat": 24.3584117,
    "lng": 54.6573359,
    "accuracy": "LOW",
    "display": "Al Shawamekh, أبو ظبي, أبوظبي, أبو ظبي, الإمارات العربية المتحدة"
  },
  {
    "index": 72,
    "address": "Al Dar Al Baida A-Call customer before, ABU DHABI, 00000",
    "queryUsed": "Dubai, UAE",
    "context": "",
    "lat": 25.0977735,
    "lng": 55.1788251,
    "accuracy": "LOW",
    "display": "Grand Heights Dubai Hotel Apartments, شارع الفصول, مدينة دبي للإعلام 2, دبي, 502400, الإمارات العربية المتحدة"
  },
  {
    "index": 73,
    "address": "Al Shawamekh-Shawamekh 6  Abu Dhabi, ABU DHABI, 00000",
    "queryUsed": "Al Shawamekh",
    "context": "abu dhabi",
    "lat": 24.3584117,
    "lng": 54.6573359,
    "accuracy": "LOW",
    "display": "Al Shawamekh, أبو ظبي, أبوظبي, أبو ظبي, الإمارات العربية المتحدة"
  },
  {
    "index": 74,
    "address": "Z 24Vila 212-Mohammed Bin Zayed Abu Dh, ABU DHABI, 00000",
    "queryUsed": "Dubai, UAE",
    "context": "",
    "lat": 25.0977735,
    "lng": 55.1788251,
    "accuracy": "LOW",
    "display": "Grand Heights Dubai Hotel Apartments, شارع الفصول, مدينة دبي للإعلام 2, دبي, 502400, الإمارات العربية المتحدة"
  },
  {
    "index": 75,
    "address": "Fllat 901-Al Reem Island Abu Dhabi, ABU DHABI, 00000",
    "queryUsed": "Dubai, UAE",
    "context": "",
    "lat": 25.0977735,
    "lng": 55.1788251,
    "accuracy": "LOW",
    "display": "Grand Heights Dubai Hotel Apartments, شارع الفصول, مدينة دبي للإعلام 2, دبي, 502400, الإمارات العربية المتحدة"
  },
  {
    "index": 76,
    "address": "Hamdan Street-Flat 405  burj saadiyat, ABU DHABI, 00000",
    "queryUsed": "Hamdan Street",
    "context": "abu dhabi",
    "lat": 24.4899348,
    "lng": 54.3636222,
    "accuracy": "LOW",
    "display": "شارع حمدان بن محمد, الدانة, أبو ظبي, أبوظبي, أبو ظبي, الإمارات العربية المتحدة"
  },
  {
    "index": 77,
    "address": "Compound 9 villa  no 3 abudabi -Khalif, ABU DHABI, 00000",
    "queryUsed": "Dubai, UAE",
    "context": "",
    "lat": 25.0977735,
    "lng": 55.1788251,
    "accuracy": "LOW",
    "display": "Grand Heights Dubai Hotel Apartments, شارع الفصول, مدينة دبي للإعلام 2, دبي, 502400, الإمارات العربية المتحدة"
  },
  {
    "index": 78,
    "address": "Compound 9 villa  no 3 abudabi -Khalif, ABU DHABI, 00000",
    "queryUsed": "Dubai, UAE",
    "context": "",
    "lat": 25.0977735,
    "lng": 55.1788251,
    "accuracy": "LOW",
    "display": "Grand Heights Dubai Hotel Apartments, شارع الفصول, مدينة دبي للإعلام 2, دبي, 502400, الإمارات العربية المتحدة"
  },
  {
    "index": 79,
    "address": "Al Khalid Lake-Al khalid  please call, AJMAN, 00000",
    "queryUsed": "Dubai, UAE",
    "context": "",
    "lat": 25.0977735,
    "lng": 55.1788251,
    "accuracy": "LOW",
    "display": "Grand Heights Dubai Hotel Apartments, شارع الفصول, مدينة دبي للإعلام 2, دبي, 502400, الإمارات العربية المتحدة"
  },
  {
    "index": 80,
    "address": "Al Helio 1-Villa no #09  cal to custom, AJMAN, 00000",
    "queryUsed": "Al Helio 1",
    "context": "ajman",
    "lat": 25.4003287,
    "lng": 55.6004333,
    "accuracy": "LOW",
    "display": "الحليو, إمارة عجمان, الإمارات العربية المتحدة"
  },
  {
    "index": 81,
    "address": "Al Rashidiya 1-Flat-1104 A0 Al khor to, AJMAN, 00000",
    "queryUsed": "Al Rashidiya 1",
    "context": "ajman",
    "lat": 25.3960681,
    "lng": 55.4468566,
    "accuracy": "LOW",
    "display": "الراشدية, عجمان, إمارة عجمان, الإمارات العربية المتحدة"
  },
  {
    "index": 82,
    "address": "Al Muweihat - Ajman-Vila no 10 behaind, AJMAN, 00000",
    "queryUsed": "Dubai, UAE",
    "context": "",
    "lat": 25.0977735,
    "lng": 55.1788251,
    "accuracy": "LOW",
    "display": "Grand Heights Dubai Hotel Apartments, شارع الفصول, مدينة دبي للإعلام 2, دبي, 502400, الإمارات العربية المتحدة"
  },
  {
    "index": 83,
    "address": "0549992214-Al Maqam AlAin, AL AIN, 00000",
    "queryUsed": "Dubai, UAE",
    "context": "",
    "lat": 25.0977735,
    "lng": 55.1788251,
    "accuracy": "LOW",
    "display": "Grand Heights Dubai Hotel Apartments, شارع الفصول, مدينة دبي للإعلام 2, دبي, 502400, الإمارات العربية المتحدة"
  },
  {
    "index": 84,
    "address": "Al Khan-Al shahed flat 2702  Sharjah, DUBAI, 00000",
    "queryUsed": "Al Khan",
    "context": "dubai",
    "lat": 25.2758774,
    "lng": 55.3079848,
    "accuracy": "LOW",
    "display": "Al Khan, 14a شارع, ديرة, المرر, Al Murar, ديرة, دبي, الإمارات العربية المتحدة"
  },
  {
    "index": 85,
    "address": "Akoya-Damac hills 2  Victoria cluster, DUBAI, 00000",
    "queryUsed": "Akoya",
    "context": "dubai",
    "lat": 24.9876809,
    "lng": 55.3743848,
    "accuracy": "LOW",
    "display": "Akoya, Damac Hills 2, دبي, الإمارات العربية المتحدة"
  },
  {
    "index": 86,
    "address": "Jumeirah Village Circle-The vybe apt 5, DUBAI, 00000",
    "queryUsed": "Jumeirah Village Circle",
    "context": "dubai",
    "lat": 25.0565882,
    "lng": 55.2079869,
    "accuracy": "LOW",
    "display": "قرية جميرا الدائرية, دبي, الإمارات العربية المتحدة"
  },
  {
    "index": 87,
    "address": "Al Nahda-Sahara Tower  6 flat no 3104, DUBAI, 00000",
    "queryUsed": "Al Nahda",
    "context": "dubai",
    "lat": 25.2732083,
    "lng": 55.3694757,
    "accuracy": "LOW",
    "display": "النهدة, شارع النهدة, القصيص, دبي, الإمارات العربية المتحدة"
  },
  {
    "index": 88,
    "address": "Abu Hail-silicon oasis   habtoor build, DUBAI, 00000",
    "queryUsed": "Abu Hail, dubai",
    "context": "",
    "lat": 25.2894942,
    "lng": 55.3311517,
    "accuracy": "LOW",
    "display": "UAE Athletics Federation 1, شارع أبو هيل, ديرة, أبو هيل, ديرة, دبي, الإمارات العربية المتحدة"
  },
  {
    "index": 89,
    "address": "Al Satwa-Al kheir 1 building  Dubai, DUBAI, 00000",
    "queryUsed": "Al Satwa, dubai",
    "context": "",
    "lat": 25.2300971,
    "lng": 55.2764487,
    "accuracy": "LOW",
    "display": "UAE Xchange, شارع السطوة, البدع, دبي, الإمارات العربية المتحدة"
  },
  {
    "index": 90,
    "address": "Liwan-MHA Building  appartment 1003 Du, DUBAI, 00000",
    "queryUsed": "Liwan",
    "context": "dubai",
    "lat": 25.1101209,
    "lng": 55.3676993,
    "accuracy": "LOW",
    "display": "ليوان, مدينة العرب, دبي, الإمارات العربية المتحدة"
  },
  {
    "index": 91,
    "address": "AlQusais Industrial Area 5-Al qusais 5, DUBAI, 00000",
    "queryUsed": "Dubai, UAE",
    "context": "",
    "lat": 25.0977735,
    "lng": 55.1788251,
    "accuracy": "LOW",
    "display": "Grand Heights Dubai Hotel Apartments, شارع الفصول, مدينة دبي للإعلام 2, دبي, 502400, الإمارات العربية المتحدة"
  },
  {
    "index": 92,
    "address": "Al Aweer Dubai-Villa no.100 near alwah, DUBAI, 00000",
    "queryUsed": "Al Aweer Dubai",
    "context": "dubai",
    "lat": 25.176036,
    "lng": 55.5408265,
    "accuracy": "LOW",
    "display": "اوير, شارع العمردي, العوير 1, دبي, الإمارات العربية المتحدة"
  },
  {
    "index": 93,
    "address": "Ras Al Khor-Vida Residance  Creek beac, DUBAI, 00000",
    "queryUsed": "Ras Al Khor",
    "context": "dubai",
    "lat": 25.1939625,
    "lng": 55.3392449,
    "accuracy": "LOW",
    "display": "رأس الخور, دبي, الإمارات العربية المتحدة"
  },
  {
    "index": 94,
    "address": "Ras Al Khor-Vida Residance  Creek beac, DUBAI, 00000",
    "queryUsed": "Ras Al Khor",
    "context": "dubai",
    "lat": 25.1939625,
    "lng": 55.3392449,
    "accuracy": "LOW",
    "display": "رأس الخور, دبي, الإمارات العربية المتحدة"
  },
  {
    "index": 95,
    "address": "Ras Al Khor-Vida Residance  Creek beac, DUBAI, 00000",
    "queryUsed": "Ras Al Khor",
    "context": "dubai",
    "lat": 25.1939625,
    "lng": 55.3392449,
    "accuracy": "LOW",
    "display": "رأس الخور, دبي, الإمارات العربية المتحدة"
  },
  {
    "index": 96,
    "address": "Al Jaddaf-Devet 2  Aprt - 605  Alt - 0, DUBAI, 00000",
    "queryUsed": "Al Jaddaf",
    "context": "dubai",
    "lat": 25.2214426,
    "lng": 55.3319351,
    "accuracy": "LOW",
    "display": "Al Jaddaf, شارع 26, الجداف, دبي, الإمارات العربية المتحدة"
  },
  {
    "index": 97,
    "address": "49 Street 24, Sector, Dubai, Dubai_x000D_\r\n DU_x000D_\r\n AE_x000D_, 00000",
    "queryUsed": "Dubai, UAE",
    "context": "",
    "lat": 25.0977735,
    "lng": 55.1788251,
    "accuracy": "LOW",
    "display": "Grand Heights Dubai Hotel Apartments, شارع الفصول, مدينة دبي للإعلام 2, دبي, 502400, الإمارات العربية المتحدة"
  },
  {
    "index": 98,
    "address": "Manchester Building, Marsa Dubai, D_x000, Dubai_x000D_\r\n DU_x000D_\r\n AE_x000D_, 00000",
    "queryUsed": "Dubai, UAE",
    "context": "",
    "lat": 25.0977735,
    "lng": 55.1788251,
    "accuracy": "LOW",
    "display": "Grand Heights Dubai Hotel Apartments, شارع الفصول, مدينة دبي للإعلام 2, دبي, 502400, الإمارات العربية المتحدة"
  },
  {
    "index": 99,
    "address": "IBN Batutta Mall, SZR, DUBAI, 00000",
    "queryUsed": "Dubai, UAE",
    "context": "",
    "lat": 25.0977735,
    "lng": 55.1788251,
    "accuracy": "LOW",
    "display": "Grand Heights Dubai Hotel Apartments, شارع الفصول, مدينة دبي للإعلام 2, دبي, 502400, الإمارات العربية المتحدة"
  },
  {
    "index": 100,
    "address": "IBN Batutta Mall, SZR, DUBAI, 00000",
    "queryUsed": "Dubai, UAE",
    "context": "",
    "lat": 25.0977735,
    "lng": 55.1788251,
    "accuracy": "LOW",
    "display": "Grand Heights Dubai Hotel Apartments, شارع الفصول, مدينة دبي للإعلام 2, دبي, 502400, الإمارات العربية المتحدة"
  },
  {
    "index": 101,
    "address": "Yas Mall, YAS ISLAND, ABU DHABI, 00000",
    "queryUsed": "Yas Mall, YAS , ABU DHABI",
    "context": "abu dhabi",
    "lat": 24.4856715,
    "lng": 54.6089447,
    "accuracy": "LOW",
    "display": "Chili's, Yas Mall, شارع الخُيُول, جزيرة ياس, أبو ظبي, أبوظبي, أبو ظبي, الإمارات العربية المتحدة"
  },
  {
    "index": 102,
    "address": "Yas Mall, YAS ISLAND, ABU DHABI, 00000",
    "queryUsed": "Yas Mall, YAS , ABU DHABI",
    "context": "Dubai, UAE",
    "lat": 24.4856715,
    "lng": 54.6089447,
    "accuracy": "LOW",
    "display": "Chili's, Yas Mall, شارع الخُيُول, جزيرة ياس, أبو ظبي, أبوظبي, أبو ظبي, الإمارات العربية المتحدة"
  },
  {
    "index": 103,
    "address": "Yas Mall, YAS ISLAND, ABU DHABI, 00000",
    "queryUsed": "Yas Mall, YAS , ABU DHABI",
    "context": "Dubai, UAE",
    "lat": 24.4856715,
    "lng": 54.6089447,
    "accuracy": "LOW",
    "display": "Chili's, Yas Mall, شارع الخُيُول, جزيرة ياس, أبو ظبي, أبوظبي, أبو ظبي, الإمارات العربية المتحدة"
  },
  {
    "index": 104,
    "address": "Mall of the Emirates, Al Barsha, DUBAI, 00000",
    "queryUsed": "Mall of the Emirates, Al Barsha, DUBAI",
    "context": "dubai",
    "lat": 25.1177125,
    "lng": 55.2004459,
    "accuracy": "MEDIUM",
    "display": "مول الإمارات, 1, شارع السيداف 1, البرشاء, دبي, الإمارات العربية المتحدة"
  },
  {
    "index": 105,
    "address": "Mall of the Emirates, Al Barsha, DUBAI, 00000",
    "queryUsed": "Mall of the Emirates, Al Barsha, DUBAI",
    "context": "Dubai, UAE",
    "lat": 25.1177125,
    "lng": 55.2004459,
    "accuracy": "MEDIUM",
    "display": "مول الإمارات, 1, شارع السيداف 1, البرشاء, دبي, الإمارات العربية المتحدة"
  },
  {
    "index": 106,
    "address": "Mall of the Emirates, Al Barsha, DUBAI, 00000",
    "queryUsed": "Mall of the Emirates, Al Barsha, DUBAI",
    "context": "Dubai, UAE",
    "lat": 25.1177125,
    "lng": 55.2004459,
    "accuracy": "MEDIUM",
    "display": "مول الإمارات, 1, شارع السيداف 1, البرشاء, دبي, الإمارات العربية المتحدة"
  },
  {
    "index": 107,
    "address": "0544148544 Al waga-AlJimi Al Ain, AL AIN, 00000",
    "queryUsed": "Dubai, UAE",
    "context": "",
    "lat": 25.0977735,
    "lng": 55.1788251,
    "accuracy": "LOW",
    "display": "Grand Heights Dubai Hotel Apartments, شارع الفصول, مدينة دبي للإعلام 2, دبي, 502400, الإمارات العربية المتحدة"
  },
  {
    "index": 108,
    "address": "Yas Mall, YAS ISLAND, ABU DHABI, 00000",
    "queryUsed": "Yas Mall, YAS , ABU DHABI",
    "context": "Dubai, UAE",
    "lat": 24.4856715,
    "lng": 54.6089447,
    "accuracy": "LOW",
    "display": "Chili's, Yas Mall, شارع الخُيُول, جزيرة ياس, أبو ظبي, أبوظبي, أبو ظبي, الإمارات العربية المتحدة"
  },
  {
    "index": 109,
    "address": "Yas Mall, YAS ISLAND, ABU DHABI, 00000",
    "queryUsed": "Yas Mall, YAS , ABU DHABI",
    "context": "Dubai, UAE",
    "lat": 24.4856715,
    "lng": 54.6089447,
    "accuracy": "LOW",
    "display": "Chili's, Yas Mall, شارع الخُيُول, جزيرة ياس, أبو ظبي, أبوظبي, أبو ظبي, الإمارات العربية المتحدة"
  },
  {
    "index": 110,
    "address": "Begonia Road, 00000",
    "queryUsed": "Begonia Road",
    "context": "dubai",
    "lat": 25.0008437,
    "lng": 55.1612401,
    "accuracy": "LOW",
    "display": "طريق بغونية, مجمع دبي للاستثمار, قرية المجتمع الخضراء, دبي, الإمارات العربية المتحدة"
  },
  {
    "index": 111,
    "address": "Industrial area no 10, Sharjah, 71352",
    "queryUsed": "Industrial area no 10",
    "context": "Dubai, UAE",
    "lat": 25.1524105,
    "lng": 55.2340999,
    "accuracy": "LOW",
    "display": "The Healthy Home UAE, Kunooz 13 Street, Al Quoz Industrial Area, مجتمع القوز, دبي, الإمارات العربية المتحدة"
  },
  {
    "index": 112,
    "address": "Industrial area no 10, Sharjah, 71352",
    "queryUsed": "Industrial area no 10",
    "context": "Dubai, UAE",
    "lat": 25.1524105,
    "lng": 55.2340999,
    "accuracy": "LOW",
    "display": "The Healthy Home UAE, Kunooz 13 Street, Al Quoz Industrial Area, مجتمع القوز, دبي, الإمارات العربية المتحدة"
  },
  {
    "index": 113,
    "address": "Industrial area no 10, Sharjah, 71352",
    "queryUsed": "Industrial area no 10",
    "context": "Dubai, UAE",
    "lat": 25.1524105,
    "lng": 55.2340999,
    "accuracy": "LOW",
    "display": "The Healthy Home UAE, Kunooz 13 Street, Al Quoz Industrial Area, مجتمع القوز, دبي, الإمارات العربية المتحدة"
  },
  {
    "index": 114,
    "address": "Industrial area no 10, Sharjah, 71352",
    "queryUsed": "Industrial area no 10",
    "context": "Dubai, UAE",
    "lat": 25.1524105,
    "lng": 55.2340999,
    "accuracy": "LOW",
    "display": "The Healthy Home UAE, Kunooz 13 Street, Al Quoz Industrial Area, مجتمع القوز, دبي, الإمارات العربية المتحدة"
  },
  {
    "index": 115,
    "address": "Industrial area no 10, Sharjah, 71352",
    "queryUsed": "Industrial area no 10",
    "context": "Dubai, UAE",
    "lat": 25.1524105,
    "lng": 55.2340999,
    "accuracy": "LOW",
    "display": "The Healthy Home UAE, Kunooz 13 Street, Al Quoz Industrial Area, مجتمع القوز, دبي, الإمارات العربية المتحدة"
  },
  {
    "index": 116,
    "address": "Industrial area no 10, Sharjah, 71352",
    "queryUsed": "Industrial area no 10",
    "context": "Dubai, UAE",
    "lat": 25.1524105,
    "lng": 55.2340999,
    "accuracy": "LOW",
    "display": "The Healthy Home UAE, Kunooz 13 Street, Al Quoz Industrial Area, مجتمع القوز, دبي, الإمارات العربية المتحدة"
  },
  {
    "index": 117,
    "address": "Industrial area no 10, Sharjah, 71352",
    "queryUsed": "Industrial area no 10",
    "context": "Dubai, UAE",
    "lat": 25.1524105,
    "lng": 55.2340999,
    "accuracy": "LOW",
    "display": "The Healthy Home UAE, Kunooz 13 Street, Al Quoz Industrial Area, مجتمع القوز, دبي, الإمارات العربية المتحدة"
  },
  {
    "index": 118,
    "address": "Industrial area no 10, Sharjah, 71352",
    "queryUsed": "Industrial area no 10",
    "context": "Dubai, UAE",
    "lat": 25.1524105,
    "lng": 55.2340999,
    "accuracy": "LOW",
    "display": "The Healthy Home UAE, Kunooz 13 Street, Al Quoz Industrial Area, مجتمع القوز, دبي, الإمارات العربية المتحدة"
  },
  {
    "index": 119,
    "address": "Industrial area no 10, Sharjah, 71352",
    "queryUsed": "Industrial area no 10",
    "context": "Dubai, UAE",
    "lat": 25.1524105,
    "lng": 55.2340999,
    "accuracy": "LOW",
    "display": "The Healthy Home UAE, Kunooz 13 Street, Al Quoz Industrial Area, مجتمع القوز, دبي, الإمارات العربية المتحدة"
  },
  {
    "index": 120,
    "address": "Industrial area no 10, Sharjah, 71352",
    "queryUsed": "Industrial area no 10",
    "context": "Dubai, UAE",
    "lat": 25.1524105,
    "lng": 55.2340999,
    "accuracy": "LOW",
    "display": "The Healthy Home UAE, Kunooz 13 Street, Al Quoz Industrial Area, مجتمع القوز, دبي, الإمارات العربية المتحدة"
  },
  {
    "index": 121,
    "address": "Industrial area no 10, Sharjah, 71352",
    "queryUsed": "Industrial area no 10",
    "context": "Dubai, UAE",
    "lat": 25.1524105,
    "lng": 55.2340999,
    "accuracy": "LOW",
    "display": "The Healthy Home UAE, Kunooz 13 Street, Al Quoz Industrial Area, مجتمع القوز, دبي, الإمارات العربية المتحدة"
  },
  {
    "index": 122,
    "address": "Industrial area no 10, Sharjah, 71352",
    "queryUsed": "Industrial area no 10",
    "context": "Dubai, UAE",
    "lat": 25.1524105,
    "lng": 55.2340999,
    "accuracy": "LOW",
    "display": "The Healthy Home UAE, Kunooz 13 Street, Al Quoz Industrial Area, مجتمع القوز, دبي, الإمارات العربية المتحدة"
  },
  {
    "index": 123,
    "address": "Industrial area no 10, Sharjah, 71352",
    "queryUsed": "Industrial area no 10",
    "context": "Dubai, UAE",
    "lat": 25.1524105,
    "lng": 55.2340999,
    "accuracy": "LOW",
    "display": "The Healthy Home UAE, Kunooz 13 Street, Al Quoz Industrial Area, مجتمع القوز, دبي, الإمارات العربية المتحدة"
  },
  {
    "index": 124,
    "address": "Industrial area no 10, Sharjah, 71352",
    "queryUsed": "Industrial area no 10",
    "context": "Dubai, UAE",
    "lat": 25.1524105,
    "lng": 55.2340999,
    "accuracy": "LOW",
    "display": "The Healthy Home UAE, Kunooz 13 Street, Al Quoz Industrial Area, مجتمع القوز, دبي, الإمارات العربية المتحدة"
  },
  {
    "index": 125,
    "address": "Industrial area no 10, Sharjah, 71352",
    "queryUsed": "Industrial area no 10",
    "context": "Dubai, UAE",
    "lat": 25.1524105,
    "lng": 55.2340999,
    "accuracy": "LOW",
    "display": "The Healthy Home UAE, Kunooz 13 Street, Al Quoz Industrial Area, مجتمع القوز, دبي, الإمارات العربية المتحدة"
  },
  {
    "index": 126,
    "address": "Industrial area no 10, Sharjah, 71352",
    "queryUsed": "Industrial area no 10",
    "context": "Dubai, UAE",
    "lat": 25.1524105,
    "lng": 55.2340999,
    "accuracy": "LOW",
    "display": "The Healthy Home UAE, Kunooz 13 Street, Al Quoz Industrial Area, مجتمع القوز, دبي, الإمارات العربية المتحدة"
  },
  {
    "index": 127,
    "address": "Industrial area no 10, Sharjah, 71352",
    "queryUsed": "Industrial area no 10",
    "context": "Dubai, UAE",
    "lat": 25.1524105,
    "lng": 55.2340999,
    "accuracy": "LOW",
    "display": "The Healthy Home UAE, Kunooz 13 Street, Al Quoz Industrial Area, مجتمع القوز, دبي, الإمارات العربية المتحدة"
  },
  {
    "index": 128,
    "address": "Industrial area no 10, Sharjah, 71352",
    "queryUsed": "Industrial area no 10",
    "context": "Dubai, UAE",
    "lat": 25.1524105,
    "lng": 55.2340999,
    "accuracy": "LOW",
    "display": "The Healthy Home UAE, Kunooz 13 Street, Al Quoz Industrial Area, مجتمع القوز, دبي, الإمارات العربية المتحدة"
  },
  {
    "index": 129,
    "address": "Industrial area no 10, Sharjah, 71352",
    "queryUsed": "Industrial area no 10",
    "context": "Dubai, UAE",
    "lat": 25.1524105,
    "lng": 55.2340999,
    "accuracy": "LOW",
    "display": "The Healthy Home UAE, Kunooz 13 Street, Al Quoz Industrial Area, مجتمع القوز, دبي, الإمارات العربية المتحدة"
  },
  {
    "index": 130,
    "address": "Industrial area no 10, Sharjah, 71352",
    "queryUsed": "Industrial area no 10",
    "context": "Dubai, UAE",
    "lat": 25.1524105,
    "lng": 55.2340999,
    "accuracy": "LOW",
    "display": "The Healthy Home UAE, Kunooz 13 Street, Al Quoz Industrial Area, مجتمع القوز, دبي, الإمارات العربية المتحدة"
  },
  {
    "index": 131,
    "address": "Industrial area no 10, Sharjah, 71352",
    "queryUsed": "Industrial area no 10",
    "context": "Dubai, UAE",
    "lat": 25.1524105,
    "lng": 55.2340999,
    "accuracy": "LOW",
    "display": "The Healthy Home UAE, Kunooz 13 Street, Al Quoz Industrial Area, مجتمع القوز, دبي, الإمارات العربية المتحدة"
  },
  {
    "index": 132,
    "address": "Industrial area no 10, Sharjah, 71352",
    "queryUsed": "Industrial area no 10",
    "context": "Dubai, UAE",
    "lat": 25.1524105,
    "lng": 55.2340999,
    "accuracy": "LOW",
    "display": "The Healthy Home UAE, Kunooz 13 Street, Al Quoz Industrial Area, مجتمع القوز, دبي, الإمارات العربية المتحدة"
  },
  {
    "index": 133,
    "address": "Industrial area no 10, Sharjah, 71352",
    "queryUsed": "Industrial area no 10",
    "context": "Dubai, UAE",
    "lat": 25.1524105,
    "lng": 55.2340999,
    "accuracy": "LOW",
    "display": "The Healthy Home UAE, Kunooz 13 Street, Al Quoz Industrial Area, مجتمع القوز, دبي, الإمارات العربية المتحدة"
  },
  {
    "index": 134,
    "address": "Industrial area no 10, Sharjah, 71352",
    "queryUsed": "Industrial area no 10",
    "context": "Dubai, UAE",
    "lat": 25.1524105,
    "lng": 55.2340999,
    "accuracy": "LOW",
    "display": "The Healthy Home UAE, Kunooz 13 Street, Al Quoz Industrial Area, مجتمع القوز, دبي, الإمارات العربية المتحدة"
  },
  {
    "index": 135,
    "address": "Industrial area no 10, Sharjah, 71352",
    "queryUsed": "Industrial area no 10",
    "context": "Dubai, UAE",
    "lat": 25.1524105,
    "lng": 55.2340999,
    "accuracy": "LOW",
    "display": "The Healthy Home UAE, Kunooz 13 Street, Al Quoz Industrial Area, مجتمع القوز, دبي, الإمارات العربية المتحدة"
  },
  {
    "index": 136,
    "address": "Industrial area no 10, Sharjah, 71352",
    "queryUsed": "Industrial area no 10",
    "context": "Dubai, UAE",
    "lat": 25.1524105,
    "lng": 55.2340999,
    "accuracy": "LOW",
    "display": "The Healthy Home UAE, Kunooz 13 Street, Al Quoz Industrial Area, مجتمع القوز, دبي, الإمارات العربية المتحدة"
  },
  {
    "index": 137,
    "address": "Industrial area no 10, Sharjah, 71352",
    "queryUsed": "Industrial area no 10",
    "context": "Dubai, UAE",
    "lat": 25.1524105,
    "lng": 55.2340999,
    "accuracy": "LOW",
    "display": "The Healthy Home UAE, Kunooz 13 Street, Al Quoz Industrial Area, مجتمع القوز, دبي, الإمارات العربية المتحدة"
  },
  {
    "index": 138,
    "address": "Industrial area no 10, Sharjah, 71352",
    "queryUsed": "Industrial area no 10",
    "context": "Dubai, UAE",
    "lat": 25.1524105,
    "lng": 55.2340999,
    "accuracy": "LOW",
    "display": "The Healthy Home UAE, Kunooz 13 Street, Al Quoz Industrial Area, مجتمع القوز, دبي, الإمارات العربية المتحدة"
  },
  {
    "index": 139,
    "address": "Industrial area no 10, Sharjah, 71352",
    "queryUsed": "Industrial area no 10",
    "context": "Dubai, UAE",
    "lat": 25.1524105,
    "lng": 55.2340999,
    "accuracy": "LOW",
    "display": "The Healthy Home UAE, Kunooz 13 Street, Al Quoz Industrial Area, مجتمع القوز, دبي, الإمارات العربية المتحدة"
  },
  {
    "index": 140,
    "address": "Industrial area no 10, Sharjah, 71352",
    "queryUsed": "Industrial area no 10",
    "context": "Dubai, UAE",
    "lat": 25.1524105,
    "lng": 55.2340999,
    "accuracy": "LOW",
    "display": "The Healthy Home UAE, Kunooz 13 Street, Al Quoz Industrial Area, مجتمع القوز, دبي, الإمارات العربية المتحدة"
  },
  {
    "index": 141,
    "address": "Industrial area no 10, Sharjah, 71352",
    "queryUsed": "Industrial area no 10",
    "context": "Dubai, UAE",
    "lat": 25.1524105,
    "lng": 55.2340999,
    "accuracy": "LOW",
    "display": "The Healthy Home UAE, Kunooz 13 Street, Al Quoz Industrial Area, مجتمع القوز, دبي, الإمارات العربية المتحدة"
  },
  {
    "index": 142,
    "address": "Industrial area no 10, Sharjah, 71352",
    "queryUsed": "Industrial area no 10",
    "context": "Dubai, UAE",
    "lat": 25.1524105,
    "lng": 55.2340999,
    "accuracy": "LOW",
    "display": "The Healthy Home UAE, Kunooz 13 Street, Al Quoz Industrial Area, مجتمع القوز, دبي, الإمارات العربية المتحدة"
  },
  {
    "index": 143,
    "address": "Industrial area no 10, Sharjah, 71352",
    "queryUsed": "Industrial area no 10",
    "context": "Dubai, UAE",
    "lat": 25.1524105,
    "lng": 55.2340999,
    "accuracy": "LOW",
    "display": "The Healthy Home UAE, Kunooz 13 Street, Al Quoz Industrial Area, مجتمع القوز, دبي, الإمارات العربية المتحدة"
  },
  {
    "index": 144,
    "address": "Industrial area no 10, Sharjah, 71352",
    "queryUsed": "Industrial area no 10",
    "context": "Dubai, UAE",
    "lat": 25.1524105,
    "lng": 55.2340999,
    "accuracy": "LOW",
    "display": "The Healthy Home UAE, Kunooz 13 Street, Al Quoz Industrial Area, مجتمع القوز, دبي, الإمارات العربية المتحدة"
  },
  {
    "index": 145,
    "address": "AURA GARDEN3, B046 TILA AL GHAF, DUBAI, Dubai, 00000",
    "queryUsed": "Dubai, UAE",
    "context": "",
    "lat": 25.0977735,
    "lng": 55.1788251,
    "accuracy": "LOW",
    "display": "Grand Heights Dubai Hotel Apartments, شارع الفصول, مدينة دبي للإعلام 2, دبي, 502400, الإمارات العربية المتحدة"
  },
  {
    "index": 146,
    "address": "NAD AL SHIBA GRADENS, Dubai, 00000",
    "queryUsed": "NAD AL SHIBA , Dubai",
    "context": "dubai",
    "lat": 25.1545532,
    "lng": 55.2450272,
    "accuracy": "LOW",
    "display": "Nad Al Shiba Baker, شارع 12, القوز, مجتمع القوز, دبي, الإمارات العربية المتحدة"
  },
  {
    "index": 147,
    "address": "NAD AL SHIBA GRADENS, Dubai, 00000",
    "queryUsed": "NAD AL SHIBA , Dubai",
    "context": "Dubai, UAE",
    "lat": 25.1545532,
    "lng": 55.2450272,
    "accuracy": "LOW",
    "display": "Nad Al Shiba Baker, شارع 12, القوز, مجتمع القوز, دبي, الإمارات العربية المتحدة"
  },
  {
    "index": 148,
    "address": "NAD AL SHIBA GRADENS, Dubai, 00000",
    "queryUsed": "NAD AL SHIBA , Dubai",
    "context": "Dubai, UAE",
    "lat": 25.1545532,
    "lng": 55.2450272,
    "accuracy": "LOW",
    "display": "Nad Al Shiba Baker, شارع 12, القوز, مجتمع القوز, دبي, الإمارات العربية المتحدة"
  },
  {
    "index": 149,
    "address": "NAD AL SHIBA GRADENS, Dubai, 00000",
    "queryUsed": "NAD AL SHIBA , Dubai",
    "context": "Dubai, UAE",
    "lat": 25.1545532,
    "lng": 55.2450272,
    "accuracy": "LOW",
    "display": "Nad Al Shiba Baker, شارع 12, القوز, مجتمع القوز, دبي, الإمارات العربية المتحدة"
  },
  {
    "index": 150,
    "address": "Villa 230-Talia - The Valley - Al Yufr, Dubai, 00000",
    "queryUsed": "Villa 230",
    "context": "dubai",
    "lat": 25.2296341,
    "lng": 55.289585,
    "accuracy": "MEDIUM",
    "display": "دبي, الإمارات العربية المتحدة"
  },
  {
    "index": 151,
    "address": "Villa 230-Talia - The Valley - Al Yufr, Dubai, 00000",
    "queryUsed": "Villa 230",
    "context": "dubai",
    "lat": 25.2296341,
    "lng": 55.289585,
    "accuracy": "MEDIUM",
    "display": "دبي, الإمارات العربية المتحدة"
  },
  {
    "index": 152,
    "address": "Villa 230-Talia - The Valley - Al Yufr, Dubai, 00000",
    "queryUsed": "Villa 230",
    "context": "dubai",
    "lat": 25.2296341,
    "lng": 55.289585,
    "accuracy": "MEDIUM",
    "display": "دبي, الإمارات العربية المتحدة"
  },
  {
    "index": 153,
    "address": "Town Square, Jenna 1, apt. 803, Dubai, 00000",
    "queryUsed": "Dubai, UAE",
    "context": "",
    "lat": 25.0977735,
    "lng": 55.1788251,
    "accuracy": "LOW",
    "display": "Grand Heights Dubai Hotel Apartments, شارع الفصول, مدينة دبي للإعلام 2, دبي, 502400, الإمارات العربية المتحدة"
  },
  {
    "index": 154,
    "address": "riviera tower, sharjah 151 corniche st, DUBAI, 00000",
    "queryUsed": "Dubai, UAE",
    "context": "",
    "lat": 25.0977735,
    "lng": 55.1788251,
    "accuracy": "LOW",
    "display": "Grand Heights Dubai Hotel Apartments, شارع الفصول, مدينة دبي للإعلام 2, دبي, 502400, الإمارات العربية المتحدة"
  },
  {
    "index": 155,
    "address": "1204, CANAL BAY BUILDING, BUSINESS BAY, Dubai, 00000",
    "queryUsed": "1204",
    "context": "Dubai, UAE",
    "lat": 25.1738662,
    "lng": 55.2187829,
    "accuracy": "LOW",
    "display": "Beach Walk Hotel - Jumeriah, شارع جميرا, أم سقيم 1, أم سقيم, دبي, الإمارات العربية المتحدة"
  },
  {
    "index": 156,
    "address": "703, SKYCOURT TOWER-B, DUBAI LAND, DUBAI, 00000",
    "queryUsed": "703",
    "context": "Dubai, UAE",
    "lat": 25.1738662,
    "lng": 55.2187829,
    "accuracy": "LOW",
    "display": "Beach Walk Hotel - Jumeriah, شارع جميرا, أم سقيم 1, أم سقيم, دبي, الإمارات العربية المتحدة"
  },
  {
    "index": 157,
    "address": "AL WAZAN BLOCK#A APPT#603 AL MAJAZ 3 S, DUBAI, 00000",
    "queryUsed": "Dubai, UAE",
    "context": "",
    "lat": 25.0977735,
    "lng": 55.1788251,
    "accuracy": "LOW",
    "display": "Grand Heights Dubai Hotel Apartments, شارع الفصول, مدينة دبي للإعلام 2, دبي, 502400, الإمارات العربية المتحدة"
  },
  {
    "index": 158,
    "address": "Creek Harbour, Harbour Views 2, 403, DUBAI, 00000",
    "queryUsed": "Dubai, UAE",
    "context": "",
    "lat": 25.0977735,
    "lng": 55.1788251,
    "accuracy": "LOW",
    "display": "Grand Heights Dubai Hotel Apartments, شارع الفصول, مدينة دبي للإعلام 2, دبي, 502400, الإمارات العربية المتحدة"
  },
  {
    "index": 159,
    "address": "DSO BINGHATTI VIEWS APPT 412, Dubai, 00000",
    "queryUsed": "Dubai, UAE",
    "context": "",
    "lat": 25.0977735,
    "lng": 55.1788251,
    "accuracy": "LOW",
    "display": "Grand Heights Dubai Hotel Apartments, شارع الفصول, مدينة دبي للإعلام 2, دبي, 502400, الإمارات العربية المتحدة"
  },
  {
    "index": 160,
    "address": "CRESCENT TOWER A,  APT 916,DUBAI PR, Dubai, 00000",
    "queryUsed": "Dubai, UAE",
    "context": "",
    "lat": 25.0977735,
    "lng": 55.1788251,
    "accuracy": "LOW",
    "display": "Grand Heights Dubai Hotel Apartments, شارع الفصول, مدينة دبي للإعلام 2, دبي, 502400, الإمارات العربية المتحدة"
  },
  {
    "index": 161,
    "address": "Address not available",
    "queryUsed": "Dubai, UAE",
    "context": "",
    "lat": 25.0977735,
    "lng": 55.1788251,
    "accuracy": "LOW",
    "display": "Grand Heights Dubai Hotel Apartments, شارع الفصول, مدينة دبي للإعلام 2, دبي, 502400, الإمارات العربية المتحدة"
  }
]